City_ID,City,Lat,Lng,Max Temp,Humidity,Cloudiness,Wind Speed,Country,Date
0,port-aux-francais,-49.35,70.2167,35.83,98,100,39.46,TF,1687842677
1,mbanza kongo,-6.267,14.2401,63.23,95,54,3.2,AO,1687842094
2,adamstown,-25.066,-130.1015,70.95,80,68,24.11,PN,1687842677
3,punta arenas,-53.15,-70.9167,33.91,80,75,16.11,CL,1687842564
4,hamilton,39.1834,-84.5333,68.09,90,100,11.5,US,1687842670
5,iqaluit,63.7506,-68.5145,40.73,80,75,4.61,CA,1687842678
6,puerto gaitan,4.3133,-72.0816,76.3,87,98,3.29,CO,1687842678
7,mogadishu,2.0371,45.3438,79.03,78,18,16.8,SO,1687842678
8,puerto ayora,-0.7393,-90.3518,75.54,94,87,9.84,EC,1687842678
9,ribeira grande,38.5167,-28.7,66.78,88,2,5.99,PT,1687842679
10,stanley,54.868,-1.6985,53.89,90,99,4.34,GB,1687842679
11,ushuaia,-54.8,-68.3,24.46,80,0,4.61,AR,1687842651
12,happy valley-goose bay,53.3168,-60.3315,61.07,58,100,11.48,CA,1687842679
13,bikenibeu village,1.3673,173.1241,82.36,83,100,4.61,KI,1687842679
14,acarau,-2.8856,-40.12,75.96,84,16,11.41,BR,1687842680
15,longyearbyen,78.2186,15.6401,44.44,87,75,9.22,SJ,1687842680
16,quang ngai,15.1167,108.8,93.54,51,98,10.31,VN,1687842089
17,carauari,-4.8828,-66.8958,74.21,92,95,1.79,BR,1687842680
18,grytviken,-54.2811,-36.5092,23.32,93,100,4.74,GS,1687842681
19,bredasdorp,-34.5322,20.0403,56.61,89,96,20.2,ZA,1687842681
20,petropavlovsk-kamchatsky,53.0452,158.6483,75.79,53,0,11.18,RU,1687842095
21,waitangi,-43.9535,-176.5597,53.82,93,100,11.01,NZ,1687842681
22,aasiaat,68.7098,-52.8699,37.63,90,100,13.44,GL,1687842681
23,thompson,55.7435,-97.8558,50.16,71,75,0.0,CA,1687842682
24,ilulissat,69.2167,-51.1,50.02,57,20,12.66,GL,1687842682
25,svetlyy,54.675,20.1347,59.97,96,100,18.63,RU,1687842682
26,geraldton,-28.7667,114.6,61.21,55,0,14.97,AU,1687842682
27,college,64.8569,-147.8028,67.98,45,75,6.91,US,1687842683
28,lerwick,60.1545,-1.1494,51.8,90,1,7.07,GB,1687842103
29,gimbi,9.1667,35.8333,57.0,98,98,2.04,ET,1687842683
30,tralee,52.2704,-9.7026,60.57,98,100,6.44,IE,1687842683
31,lhasa,29.65,91.1,66.65,41,100,6.26,CN,1687842110
32,jangaon,17.7167,79.1833,83.39,61,100,15.55,IN,1687842684
33,natal,-5.795,-35.2094,72.25,94,40,9.22,BR,1687842476
34,badger,64.8,-147.5333,67.91,44,75,6.91,US,1687842684
35,tiksi,71.6872,128.8694,54.68,48,21,3.33,RU,1687842684
36,palembang,-2.9167,104.7458,87.89,66,40,4.61,ID,1687842400
37,mangrol,21.1167,70.1167,81.37,86,100,15.52,IN,1687842685
38,kununurra,-15.7667,128.7333,80.58,50,100,12.66,AU,1687841958
39,afaahiti,-17.75,-149.2833,78.67,80,27,15.99,PF,1687842685
40,atafu village,-8.5421,-172.5159,83.12,80,97,18.63,TK,1687842686
41,wailua homesteads,22.0669,-159.378,81.03,83,75,16.11,US,1687842686
42,port lincoln,-34.7333,135.8667,57.78,67,100,4.12,AU,1687842112
43,yellowknife,62.456,-114.3525,56.3,70,8,5.91,CA,1687842641
44,edinburgh of the seven seas,-37.0676,-12.3116,60.21,95,100,31.34,SH,1687842686
45,ust'-kut,56.7938,105.7672,53.56,97,100,7.38,RU,1687842563
46,salalah,17.0151,54.0924,86.09,79,75,8.05,OM,1687842687
47,luena,-11.7833,19.9167,48.49,53,10,1.74,AO,1687842687
48,luderitz,-26.6481,15.1594,54.21,92,42,18.43,NA,1687842181
49,isafjordur,66.0755,-23.124,51.13,79,11,3.11,IS,1687842088
50,portland,45.5234,-122.6762,69.06,63,20,11.5,US,1687842564
51,kodiak,57.79,-152.4072,47.71,93,100,8.05,US,1687841979
52,kingston,17.997,-76.7936,78.24,88,100,1.01,JM,1687842688
53,susuman,62.7833,148.1667,70.12,67,69,8.1,RU,1687842688
54,port mathurin,-19.6833,63.4167,72.39,61,51,11.77,MU,1687842689
55,vilyuchinsk,52.9306,158.4028,77.27,69,87,2.13,RU,1687842689
56,newman,37.3138,-121.0208,70.03,64,11,7.54,US,1687842116
57,noshiro,40.2039,140.0242,73.33,75,100,9.95,JP,1687842690
58,lethbridge,49.7,-112.8186,66.69,63,20,8.05,CA,1687842393
59,west island,-12.1568,96.8225,82.38,65,93,12.66,CC,1687842691
60,ravar,31.2656,56.8055,91.99,12,0,2.71,IR,1687842691
61,magway,20.15,94.9167,88.03,56,92,10.09,MM,1687842691
62,udachny,66.4167,112.4,70.45,34,66,14.97,RU,1687842692
63,papatowai,-46.5619,169.4708,49.51,93,100,4.16,NZ,1687842692
64,ust-nera,64.5667,143.2,78.64,46,78,5.68,RU,1687842134
65,guiuan,11.0333,125.7247,84.06,72,100,5.1,PH,1687842692
66,tazacorte,28.629,-17.9293,68.97,83,0,8.05,ES,1687842157
67,margaret river,-33.95,115.0667,59.77,57,74,9.69,AU,1687842693
68,kapa'a,22.0752,-159.319,82.38,83,75,16.11,US,1687842693
69,mossel bay,-34.1831,22.146,53.53,87,91,19.19,ZA,1687842693
70,miranda,3.2499,-76.2281,68.13,83,82,5.21,CO,1687842693
71,isangel,-19.55,169.2667,77.11,57,40,5.75,VU,1687842146
72,veraval,20.9,70.3667,80.76,88,100,14.81,IN,1687842410
73,dudinka,69.4058,86.1778,61.63,48,85,3.58,RU,1687842694
74,waite park,45.5572,-94.2242,70.66,77,20,3.44,US,1687842525
75,the pas,53.8251,-101.2541,60.82,72,40,4.61,CA,1687842694
76,uturoa,-16.7333,-151.4333,81.0,72,0,16.8,PF,1687842136
77,carnarvon,-24.8667,113.6333,62.46,40,0,24.56,AU,1687842100
78,new norfolk,-42.7826,147.0587,55.92,68,76,7.05,AU,1687842695
79,ghanzi,-21.5667,21.7833,51.04,46,0,10.89,BW,1687842695
80,invercargill,-46.4,168.35,48.58,94,67,0.98,NZ,1687842585
81,fortuna,40.5982,-124.1573,54.93,94,100,5.75,US,1687842460
82,puerto san jose,13.9256,-90.8244,79.18,85,88,6.8,GT,1687842696
83,serdar,38.9764,56.2757,91.85,15,0,6.87,TM,1687842184
84,rabo de peixe,37.8,-25.5833,67.51,83,20,13.8,PT,1687842445
85,sandnessjoen,66.0217,12.6316,71.71,46,40,6.91,NO,1687842191
86,port elizabeth,-33.918,25.5701,60.1,94,100,19.57,ZA,1687842697
87,kalasin,16.5,103.5,88.81,95,100,7.09,TH,1687842697
88,hluti,-27.2167,31.6167,50.67,62,0,3.53,SZ,1687842179
89,bethel,41.3712,-73.414,72.01,89,100,0.0,US,1687842535
90,keflavik,64.0049,-22.5624,52.23,87,75,10.36,IS,1687842698
91,vadso,70.0744,29.7487,59.88,71,75,2.3,NO,1687842698
92,bubaque,11.2833,-15.8333,79.74,85,100,7.85,GW,1687842115
93,kabompo,-13.5927,24.2008,46.29,71,82,3.62,ZM,1687842698
94,port hedland,-20.3167,118.5667,73.45,27,0,17.27,AU,1687842699
95,xuanzhou,30.9525,118.7553,89.38,63,9,7.99,CN,1687842699
96,solnechnyy,50.7214,136.6319,81.84,46,55,4.21,RU,1687842178
97,tolanaro,-25.0319,46.9987,67.53,75,90,6.31,MG,1687842699
98,yuzhno-kurilsk,44.0306,145.8556,62.62,84,60,16.37,RU,1687842172
99,karagandy,49.8019,73.1021,64.35,42,85,19.39,KZ,1687842700
100,ulaangom,49.9811,92.0667,65.39,34,3,7.23,MN,1687842700
101,georgetown,5.4112,100.3354,87.94,74,40,0.0,MY,1687842615
102,albany,42.6001,-73.9662,65.68,94,100,3.76,US,1687842560
103,la puebla de montalban,39.863,-4.3592,73.49,50,0,3.89,ES,1687842700
104,crescent city,41.756,-124.2018,57.49,94,100,14.97,US,1687842701
105,remire-montjoly,4.9167,-52.2667,75.24,94,100,2.3,GF,1687842103
106,aioun,16.6614,-9.6149,85.77,51,93,12.66,MR,1687842701
107,dali,25.7,100.1833,79.29,51,31,4.34,CN,1687842701
108,olonets,60.9847,32.9698,67.96,57,58,2.53,RU,1687842702
109,salinopolis,-0.6136,-47.3561,78.48,82,42,10.56,BR,1687842146
110,markovo,57.3206,107.0881,59.4,96,100,6.15,RU,1687842702
111,east ballina,-28.8667,153.5833,71.8,50,36,5.7,AU,1687842702
112,port douglas,-16.4833,145.4667,76.98,71,93,10.65,AU,1687842172
113,chorbane,35.2858,10.3858,75.79,58,0,3.09,TN,1687842703
114,blackmans bay,-43.0167,147.3167,54.73,65,78,6.53,AU,1687842703
115,puerto natales,-51.7236,-72.4875,34.16,98,100,6.89,CL,1687842703
116,san antonio de pale,-1.4014,5.6325,75.18,84,0,10.96,GQ,1687842160
117,ghat,24.9647,10.1728,83.23,18,4,2.82,LY,1687842703
118,urumqi,43.801,87.6005,76.15,22,0,4.47,CN,1687842627
119,wynyard,-41.0,145.7167,51.98,82,85,10.22,AU,1687842704
120,lihue,21.9789,-159.3672,81.64,77,75,16.11,US,1687842704
121,jamai,22.2,78.5833,73.36,92,100,10.36,IN,1687842704
122,sao felix do xingu,-6.6447,-51.995,71.15,72,89,1.7,BR,1687842447
123,jamestown,42.097,-79.2353,67.59,79,100,5.75,US,1687842482
124,skeldon,5.8833,-57.1333,75.09,94,93,3.62,GY,1687842705
125,saudarkrokur,65.7461,-19.6394,52.02,73,36,3.13,IS,1687842157
126,aytos,42.7,27.25,76.42,55,3,6.06,BG,1687842649
127,anadyr,64.75,177.4833,54.1,93,40,4.47,RU,1687842706
128,dalandzadgad,43.5708,104.425,68.0,30,100,7.47,MN,1687842493
129,amga,60.8953,131.9608,89.13,38,89,3.8,RU,1687842706
130,houlton,46.1262,-67.8403,57.72,96,100,0.0,US,1687842706
131,greystones,53.1408,-6.0631,59.92,90,100,11.72,IE,1687842706
132,inda silase,14.1031,38.2829,69.48,50,66,1.81,ET,1687842707
133,ambatofinandrahana,-20.55,46.8,50.18,54,0,3.24,MG,1687842707
134,santiago,-33.4569,-70.6483,58.62,81,75,11.5,CL,1687842000
135,nishon tumani,38.694,65.6751,86.25,25,0,6.91,UZ,1687842708
136,gerash,27.6652,54.1371,90.12,42,27,5.5,IR,1687842708
137,medjez el bab,36.6496,9.6123,71.98,62,0,4.85,TN,1687842708
138,port alfred,-33.5906,26.891,57.18,96,100,5.99,ZA,1687842708
139,riachao das neves,-11.7461,-44.91,63.61,62,11,1.97,BR,1687842677
140,maracaju,-21.6144,-55.1683,58.78,70,0,4.54,BR,1687842570
141,hermanus,-34.4187,19.2345,58.8,87,100,19.75,ZA,1687842709
142,minas de marcona,-15.2119,-75.1103,52.97,89,55,12.48,PE,1687842129
143,chibougamau,49.9168,-74.3659,60.42,88,100,9.22,CA,1687842142
144,yichang,30.7144,111.2847,93.96,49,68,4.65,CN,1687842493
145,hawaiian paradise park,19.5933,-154.9731,76.03,93,100,4.61,US,1687842710
146,naze,28.3667,129.4833,80.2,75,3,6.13,JP,1687842710
147,alamosa,37.4695,-105.87,64.38,36,20,11.5,US,1687842710
148,saint-pierre,-21.3393,55.4781,69.57,49,0,8.05,RE,1687842142
149,gadzhiyevo,69.2551,33.3362,48.61,79,80,3.04,RU,1687842144
150,mount pearl,47.5166,-52.7813,41.14,94,75,8.05,CA,1687842139
151,aras-asan,8.8908,126.3033,84.38,74,100,4.79,PH,1687842711
152,nadym,65.5333,72.5167,61.81,46,99,6.44,RU,1687842711
153,erbil,36.1926,44.0106,89.42,14,0,1.14,IQ,1687842711
154,villa gesell,-37.2639,-56.973,48.06,66,99,5.28,AR,1687842712
155,la'ie,21.6477,-157.9253,78.12,72,1,5.99,US,1687842115
156,arraial do cabo,-22.9661,-42.0278,70.11,92,1,18.1,BR,1687842097
157,barra de santo antonio,-9.4047,-35.5072,70.88,85,100,9.22,BR,1687842712
158,avarua,-21.2078,-159.775,75.25,94,75,3.44,CK,1687842713
159,kokkola,63.8385,23.1307,63.03,89,99,2.3,FI,1687842713
160,white city,42.4374,-122.8589,71.58,47,0,4.61,US,1687842713
161,vernon,50.2581,-119.2691,74.73,46,25,1.14,CA,1687842714
162,vorgashor,67.5833,63.95,51.44,67,100,6.67,RU,1687842714
163,bardai,11.65,7.2333,73.04,81,61,6.85,NG,1687842714
164,alofi,-19.0595,-169.9187,76.12,74,29,6.62,NU,1687842714
165,igrim,63.1906,64.4162,66.15,50,89,3.94,RU,1687842715
166,flying fish cove,-10.4217,105.6791,78.48,78,100,12.66,CX,1687842715
167,vila franca do campo,37.7167,-25.4333,68.41,92,55,8.52,PT,1687842715
168,ouricuri,-7.8825,-40.0817,68.0,81,63,5.77,BR,1687842715
169,lebu,-37.6167,-73.65,50.25,90,77,8.77,CL,1687842716
170,vila velha,-20.3297,-40.2925,65.95,95,0,0.0,BR,1687842716
171,jayapura,-2.5333,140.7,90.79,65,77,5.03,ID,1687842716
172,kazan,55.7887,49.1221,68.61,53,9,4.81,RU,1687842716
173,kourou,5.1552,-52.6478,75.25,93,51,6.24,GF,1687842177
174,kapit,2.0167,112.9333,93.47,48,50,1.59,MY,1687842717
175,canacona,14.9959,74.0506,80.13,77,100,5.7,IN,1687842717
176,sungai penuh,-2.0833,101.3833,73.0,84,89,3.38,ID,1687842717
177,salaya,22.3167,69.6,85.15,73,100,13.02,IN,1687842718
178,horta,38.5333,-28.6333,66.02,88,4,5.99,PT,1687842718
179,farasan,16.7022,42.1183,87.66,76,16,0.72,SA,1687842718
180,buala,-8.145,159.5921,81.81,68,73,11.23,SB,1687842718
181,utrik,11.2278,169.8474,82.83,81,23,17.85,MH,1687842719
182,howrah,22.5892,88.3103,80.6,94,100,8.05,IN,1687842532
183,ancud,-41.8697,-73.8203,46.62,87,100,8.81,CL,1687842719
184,la passe,45.5549,-0.8967,59.99,79,88,4.97,FR,1687842719
185,sitka,57.0531,-135.33,55.29,94,100,16.11,US,1687842719
186,gao,16.6362,1.637,86.41,50,66,7.65,ML,1687842720
187,dizangue,3.7667,9.9833,72.27,98,93,1.52,CM,1687842720
188,bilibino,68.0546,166.4372,59.59,42,25,19.28,RU,1687842720
189,papao,-17.75,-149.55,80.28,78,0,16.87,PF,1687842720
190,olonkinbyen,70.9221,-8.7187,42.24,91,12,12.3,SJ,1687842721
191,kulhudhuffushi,6.6221,73.07,79.21,80,100,12.95,MV,1687842721
192,hillsborough,37.5741,-122.3794,57.94,89,100,12.66,US,1687842721
193,ulladulla,-35.35,150.4667,62.46,41,57,2.3,AU,1687842722
194,weno,7.4515,151.8468,85.95,79,100,5.75,FM,1687842722
195,chimbote,-9.0853,-78.5783,69.39,82,90,8.05,PE,1687842722
196,sittwe,20.15,92.9,82.18,78,100,9.13,MM,1687842722
197,aykhal,66.0,111.5,67.71,29,82,15.3,RU,1687842723
198,kavaratti,10.5669,72.642,79.59,83,100,17.49,IN,1687842723
199,iskateley,67.6803,53.1512,48.97,88,100,5.46,RU,1687842723
200,roma,43.2128,-75.4557,68.5,93,75,13.8,US,1687842724
201,wasco,35.5941,-119.341,75.42,29,0,4.61,US,1687842724
202,kurchatov,51.6601,35.6521,57.61,98,100,6.31,RU,1687842724
203,porto torres,40.835,8.3972,68.18,86,6,8.7,IT,1687842724
204,point pedro,9.8167,80.2333,85.24,72,100,18.63,LK,1687842725
205,ciudad lazaro cardenas,17.9583,-102.2,82.4,83,98,8.1,MX,1687842459
206,constantia,44.1833,28.65,73.71,59,0,10.38,RO,1687842629
207,karkira,36.9292,6.5856,71.49,68,0,2.39,DZ,1687842725
208,tura,25.5198,90.2201,81.27,79,97,7.0,IN,1687842726
209,mul,20.0667,79.6667,75.81,94,100,10.16,IN,1687842726
210,maraba,-5.3686,-49.1178,73.58,88,0,0.0,BR,1687842726
211,coalinga,36.1397,-120.3602,70.05,44,0,6.53,US,1687842726
212,akureyri,65.6835,-18.0878,44.53,81,0,4.61,IS,1687842727
213,alice springs,-23.7,133.8833,60.35,63,100,5.75,AU,1687842727
214,karratha,-20.7377,116.8463,73.94,28,1,12.53,AU,1687842727
215,belev,53.8119,36.1319,57.18,91,100,9.71,RU,1687842727
216,conde,-7.2597,-34.9075,72.86,100,100,3.44,BR,1687842727
217,praia da vitoria,38.7333,-27.0667,68.25,94,75,8.12,PT,1687842728
218,san patricio,28.017,-97.5169,84.06,79,0,13.89,US,1687842728
219,altai,46.3722,96.2583,56.05,34,38,10.18,MN,1687842728
220,netivot,31.4222,34.5886,74.61,64,0,4.65,IL,1687842728
221,nyala,12.05,24.8833,80.28,63,80,13.65,SD,1687842639
222,siddhapur,23.9167,72.3833,89.38,60,94,7.92,IN,1687842651
223,kamyzyak,46.11,48.0736,77.02,38,0,11.18,RU,1687842729
224,tomatlan,19.9333,-105.25,80.17,83,80,0.92,MX,1687842729
225,mukalla,14.5425,49.1242,91.76,52,68,1.45,YE,1687842730
226,krasnokholm,51.5979,54.1567,64.54,48,1,12.73,RU,1687842730
227,mae chai,19.346,99.814,83.8,75,93,2.55,TH,1687842730
228,chonchi,-42.6128,-73.8092,44.11,96,100,3.31,CL,1687842730
229,wanning,18.8003,110.3967,88.7,64,87,8.52,CN,1687842731
230,williamsburg,37.2707,-76.7075,75.74,83,75,14.97,US,1687842538
231,adigrat,14.277,39.462,65.44,47,24,3.83,ET,1687842731
232,al khums,32.6486,14.2619,73.31,85,0,5.95,LY,1687842731
233,pacific grove,36.6177,-121.9166,57.22,87,100,8.05,US,1687842631
234,tsiombe,-25.3,45.4833,66.52,78,61,4.05,MG,1687842191
235,walvis bay,-22.9575,14.5053,55.09,76,100,5.61,NA,1687842732
236,sarh,9.1429,18.3923,71.89,95,100,4.92,TD,1687842732
237,fort bragg,35.139,-79.006,69.94,95,100,14.97,US,1687842732
238,nesebar,42.7833,27.7333,74.28,53,0,7.27,BG,1687842733
239,vanatori-neamt,47.2,26.3167,67.98,65,3,4.05,RO,1687842733
240,wagoner,35.9595,-95.3694,78.46,80,0,6.58,US,1687842520
241,brisas de zicatela,15.8369,-97.0419,80.33,84,74,2.66,MX,1687842733
242,mana,5.6592,-53.7767,75.54,92,29,7.4,GF,1687842734
243,fiambala,-27.6871,-67.6149,62.51,14,0,4.23,AR,1687842734
244,khorixas,-20.3667,14.9667,43.0,84,82,7.0,NA,1687842734
245,griffith,41.5284,-87.4237,68.07,84,100,0.0,US,1687842734
246,namibe,-15.1961,12.1522,58.26,80,0,6.22,AO,1687842735
247,fort abbas,29.1925,72.8536,91.89,50,95,5.03,PK,1687842735
248,touros,-5.1989,-35.4608,74.59,87,69,7.18,BR,1687842488
249,chui,-33.6971,-53.4616,57.9,94,100,4.83,UY,1687842735
250,shakawe,-18.3667,21.85,50.81,57,0,5.21,BW,1687842736
251,nsanje,-16.92,35.262,60.03,80,1,1.01,MW,1687842736
252,cozumel,20.5083,-86.9458,76.95,93,5,7.96,MX,1687842718
253,tazovsky,67.4667,78.7,51.66,62,100,6.82,RU,1687842737
254,westerland,54.9079,8.3033,62.02,77,20,17.27,DE,1687842737
255,pisco,-13.7,-76.2167,61.02,88,75,4.61,PE,1687842162
256,ikwiriri,-7.9562,38.9716,69.96,82,23,2.01,TZ,1687842737
257,new plymouth,-39.0667,174.0833,55.81,90,67,10.78,NZ,1687842508
258,hithadhoo,-0.6,73.0833,82.36,75,100,9.15,MV,1687842738
259,daru,-9.0763,143.2092,80.51,82,93,15.95,PG,1687842160
260,buncrana,55.1333,-7.45,56.97,95,100,13.44,IE,1687842738
261,santa fe de antioquia,6.5569,-75.8281,71.01,96,93,1.41,CO,1687842738
262,morondava,-20.2833,44.2833,65.32,41,0,7.45,MG,1687842739
263,impfondo,1.6381,18.0667,69.98,99,84,2.37,CG,1687842739
264,hami,42.8,93.45,80.94,23,1,6.93,CN,1687842739
265,colonia,50.9333,6.95,61.97,75,0,1.14,DE,1687842739
266,yelizovo,53.1873,158.3805,77.14,53,0,11.18,RU,1687842740
267,east london,-33.0153,27.9116,60.13,88,100,19.89,ZA,1687842583
268,levuka,50.1834,-105.4011,65.91,59,35,4.9,CA,1687842740
269,nuuk,64.1835,-51.7216,41.61,87,100,21.85,GL,1687842740
270,talnakh,69.4865,88.3972,61.21,42,97,4.25,RU,1687842731
271,leua,48.2156,18.6071,63.7,87,96,5.68,SK,1687842741
272,guiberoua,6.2392,-6.1727,66.97,99,90,2.42,CI,1687842678
273,guerrero negro,27.9769,-114.0611,63.25,81,0,16.89,MX,1687842166
274,kailua-kona,19.6406,-155.9956,84.16,69,75,10.36,US,1687842168
275,mamuju,-2.6748,118.8885,85.1,73,34,5.95,ID,1687842742
276,kampene,-3.6,26.6667,68.58,91,11,1.32,CD,1687842742
277,rouissat,31.9243,5.3502,84.27,37,0,5.75,DZ,1687842742
278,turbo,8.0937,-76.7269,76.57,90,100,1.74,CO,1687842742
279,biltine,14.5333,20.9167,85.35,45,34,7.27,TD,1687842743
280,sungailiat,-1.85,106.1333,84.94,70,52,9.04,ID,1687842743
281,mount pleasant,32.7941,-79.8626,83.05,76,40,18.41,US,1687842456
282,cooper's town,26.8667,-77.5167,81.32,83,1,13.51,BS,1687842677
283,san fernando,15.0286,120.6898,92.41,52,96,3.31,PH,1687842744
284,port macquarie,-31.4333,152.9167,61.9,46,3,6.4,AU,1687842710
285,richards bay,-28.783,32.0377,60.71,91,2,4.79,ZA,1687842744
286,asekeyevo,53.5742,52.7972,63.84,56,0,6.24,RU,1687842744
287,novoagansk,61.9449,76.6625,62.71,45,39,0.54,RU,1687842744
288,kismayo,-0.3582,42.5454,79.05,76,48,15.28,SO,1687842745
289,sutysky,49.0425,28.4173,64.36,70,7,7.94,UA,1687842745
290,lapai,9.05,6.5667,72.82,97,14,2.77,NG,1687842494
291,saint-pol-de-leon,48.6833,-3.9833,56.79,84,84,1.01,FR,1687842745
292,saynshand,44.8824,110.1163,86.56,13,87,18.99,MN,1687842746
293,mananjary,-21.2167,48.3333,63.41,82,13,4.56,MG,1687842149
294,artigas,-30.4,-56.4667,70.61,70,83,13.2,UY,1687842746
295,chongwe,-15.3292,28.682,48.78,75,31,2.93,ZM,1687842747
296,jatiwangi,-6.7336,108.2628,90.77,48,34,2.75,ID,1687842747
297,vilhena,-12.7406,-60.1458,65.08,66,24,2.01,BR,1687842747
298,jinchang,38.4953,102.1739,75.4,15,98,28.7,CN,1687842747
299,chegdomyn,51.1167,133.0167,88.47,43,91,3.96,RU,1687842747
300,fale old settlement,-9.3852,-171.2468,82.83,80,96,18.57,TK,1687842748
301,saldanha,-33.0117,17.9442,53.65,95,100,2.75,ZA,1687842748
302,auriflama,-20.6856,-50.5547,60.69,62,0,6.73,BR,1687842748
303,kudat,6.8837,116.8477,87.31,64,42,10.89,MY,1687842748
304,gangtok,27.3333,88.6167,71.56,86,75,4.56,IN,1687842749
305,thief river falls,48.1191,-96.1812,67.15,83,0,0.0,US,1687842749
306,coahuayana de hidalgo,18.7,-103.6583,80.51,87,99,2.3,MX,1687842749
307,vallegrande,-18.4897,-64.1069,50.36,97,31,3.91,BO,1687842749
308,saint croix,17.7397,-64.7388,77.45,83,0,4.61,VI,1687842468
309,sept-iles,50.2001,-66.3821,52.32,89,100,16.11,CA,1687842750
310,kamaishi,39.2667,141.8833,75.18,77,100,11.32,JP,1687842750
311,bel ombre,-4.6167,55.4167,80.44,65,20,17.27,SC,1687842750
312,shingu,33.7333,135.9833,85.82,62,100,6.04,JP,1687842751
313,glace bay,46.1969,-59.957,50.9,94,100,7.0,CA,1687842751
314,lata,40.1629,-8.3327,62.92,90,16,2.21,PT,1687842751
315,grants,35.1473,-107.8514,73.63,17,0,0.0,US,1687842610
316,mermoz boabab,14.7065,-17.4758,77.56,81,77,9.4,SN,1687842751
317,kapuskasing,49.4169,-82.4331,57.29,72,100,14.97,CA,1687842109
318,whitehorse,60.7161,-135.0538,59.77,65,75,14.97,CA,1687842752
319,gillette,44.2911,-105.5022,59.95,85,0,5.75,US,1687842752
320,saint-philippe,-21.3585,55.7679,71.19,55,0,5.08,RE,1687842752
321,broken hill,-31.95,141.4333,47.48,91,100,3.31,AU,1687842753
322,katabu,-4.9333,122.5167,85.68,71,79,1.32,ID,1687842753
323,cromer,52.9312,1.2989,57.7,86,100,10.33,GB,1687842753
324,palmer,42.1584,-72.3287,72.77,80,100,0.0,US,1687842627
325,ishigaki,24.3448,124.1572,82.24,83,74,13.82,JP,1687842754
326,winnemucca,40.973,-117.7357,64.45,42,0,9.22,US,1687842754
327,ofunato,39.0717,141.7167,74.79,81,100,8.01,JP,1687842754
328,semnan,35.5729,53.3971,86.47,16,0,3.98,IR,1687842754
329,ketchikan,55.3422,-131.6461,61.27,94,100,4.61,US,1687842755
330,corner brook,48.9667,-57.9484,42.96,95,58,3.24,CA,1687842755
331,talcahuano,-36.7167,-73.1167,53.28,94,75,6.91,CL,1687842755
332,liwale,-9.7667,37.9333,62.4,56,1,5.19,TZ,1687842755
333,prien,30.1819,-93.2738,83.01,92,0,9.22,US,1687842756
334,port-cartier,50.0334,-66.8654,52.02,90,79,13.2,CA,1687842756
335,ha'il,27.5219,41.6907,88.07,11,0,4.14,SA,1687842756
336,cabedelo,-6.9811,-34.8339,74.07,86,88,9.28,BR,1687842756
337,bandar lampung,-5.4254,105.258,83.62,69,36,11.03,ID,1687842019
338,chul'man,56.8479,124.9104,78.48,40,88,6.96,RU,1687842757
339,nova sintra,14.8667,-24.7167,68.76,81,13,10.38,CV,1687842757
340,mount gambier,-37.8333,140.7667,50.07,97,100,5.66,AU,1687842757
341,butte,39.6499,-121.5677,77.02,45,0,9.22,US,1687842757
342,port saint john's,-31.6229,29.5448,63.14,90,100,13.98,ZA,1687842757
343,prince rupert,54.3161,-130.3201,64.49,83,20,10.36,CA,1687842100
344,maintirano,-18.0667,44.0167,68.29,62,4,6.69,MG,1687842758
345,brokopondo,4.75,-55.1667,76.28,90,38,7.11,SR,1687842758
346,nantucket,41.2835,-70.0995,71.74,98,100,14.97,US,1687842744
347,yudong,29.385,106.5194,96.49,50,40,12.15,CN,1687842760
348,sarkand,45.41,79.9186,88.7,15,15,12.37,KZ,1687842760
349,carrigaline,51.8117,-8.3986,62.35,94,100,13.8,IE,1687842760
350,haiku-pauwela,20.9219,-156.3051,75.51,77,40,17.27,US,1687842180
351,palikir - national government center,6.9248,158.1611,84.94,74,100,5.75,FM,1687842761
352,vanimo,-2.6741,141.3028,85.03,68,57,7.94,PG,1687842761
353,ormara,25.2088,64.6357,85.19,74,90,9.73,PK,1687842761
354,iquique,-20.2208,-70.1431,64.44,80,6,2.82,CL,1687842761
355,laguna,38.421,-121.4238,71.55,66,0,10.36,US,1687842762
356,fort st. john,56.2499,-120.8529,69.69,56,100,4.61,CA,1687842762
357,messaad,34.1543,3.5031,74.68,37,0,3.36,DZ,1687842762
358,plastun,44.7561,136.2939,71.24,72,100,6.58,RU,1687842762
359,horodok,49.1637,26.5839,63.1,77,36,8.43,UA,1687842763
360,saipan,15.1355,145.701,86.7,100,20,10.36,MP,1687842763
361,djambala,-2.5447,14.7533,66.83,92,67,3.42,CG,1687842763
362,tshabong,-26.05,22.45,55.26,45,87,9.98,BW,1687842173
363,turtas,58.9417,69.1325,64.65,44,92,12.46,RU,1687842763
364,soio,-6.1349,12.3689,70.18,90,53,8.68,AO,1687842764
365,trairi,-3.2778,-39.2689,75.65,85,15,7.87,BR,1687842764
366,tromso,69.6496,18.957,50.02,87,20,14.97,NO,1687842764
367,egilsstadir,65.2653,-14.3948,51.31,81,21,5.55,IS,1687842764
368,trondheim,63.4305,10.3951,64.45,87,49,5.86,NO,1687842765
369,rongelap,11.1635,166.8941,82.94,82,59,18.23,MH,1687842765
370,kotlas,61.2611,46.6556,70.11,49,47,2.59,RU,1687842765
371,leppavirta,62.4901,27.7826,65.25,70,14,5.59,FI,1687842765
372,san carlos de bariloche,-41.1456,-71.3082,36.25,93,100,5.84,AR,1687842561
373,zhaqsy,51.9083,67.3133,51.57,94,100,17.98,KZ,1687842766
374,lyantor,61.6195,72.1555,62.65,43,55,3.91,RU,1687842766
375,saint-francois,46.4154,3.9054,53.67,94,0,0.0,FR,1687842766
376,rio grande,-32.035,-52.0986,63.95,97,84,6.17,BR,1687842766
377,tallulah,32.4085,-91.1868,77.05,88,0,0.0,US,1687842766
378,bengkulu,-3.8004,102.2655,84.09,67,90,7.94,ID,1687842767
379,willard,41.0531,-82.7263,65.71,83,66,12.59,US,1687842641
380,zaragoza,41.6561,-0.8773,71.02,61,20,16.11,ES,1687842511
381,beshkent,38.8214,65.6531,86.18,25,0,6.91,UZ,1687842767
382,fada,9.5667,8.3,67.15,94,21,0.25,NG,1687842768
383,coquimbo,-29.9533,-71.3436,55.13,100,75,0.0,CL,1687842768
384,kantabanji,20.4833,82.9167,75.74,91,100,10.42,IN,1687842768
385,aginskoye,51.1,114.53,60.71,81,100,15.61,RU,1687842768
386,mitu,1.1983,-70.1733,71.04,99,100,1.48,CO,1687842768
387,nar'yan-mar,67.6713,53.087,49.06,89,100,5.61,RU,1687842769
388,oranjemund,-28.55,16.4333,56.8,81,98,20.49,NA,1687842717
389,fuglafjordur,62.244,-6.814,52.27,86,0,3.62,FO,1687842769
390,nemuro,43.3236,145.575,59.79,92,68,18.12,JP,1687842769
391,gornopravdinsk,60.05,69.9,64.33,39,24,8.81,RU,1687842770
392,kerikeri,-35.2268,173.9474,54.09,82,48,8.23,NZ,1687842731
393,choibalsan,48.0667,114.5,82.54,29,1,13.24,MN,1687842770
394,nabire,-3.3667,135.4833,83.52,77,52,4.38,ID,1687842586
395,marsh harbour,26.5412,-77.0636,80.85,84,15,11.92,BS,1687842770
396,kiunga,-6.1219,141.2906,88.38,60,99,2.91,PG,1687842508
397,jiazi,22.8779,116.067,84.96,75,99,9.1,CN,1687842771
398,taroa,8.7058,171.2275,82.83,80,100,16.64,MH,1687842771
399,ban karon,7.8477,98.2985,85.78,99,100,10.78,TH,1687842771
400,kargat,55.1956,80.2811,67.44,41,98,19.17,RU,1687842771
401,vilyuysk,63.7553,121.6247,69.26,35,67,7.2,RU,1687842772
402,quesnel,52.9999,-122.5029,72.1,40,0,8.05,CA,1687842772
403,sal rei,16.1833,-22.9167,72.66,86,25,7.94,CV,1687842772
404,ust-tsilma,65.441,52.1498,60.53,56,91,1.48,RU,1687842772
405,iskushuban,10.2837,50.23,85.44,49,66,30.71,SO,1687842773
406,pundong,-7.9522,110.3486,81.54,73,93,11.36,ID,1687842189
407,menemen,38.6075,27.0694,76.37,62,0,9.48,TR,1687842620
408,jiayuguan,39.8167,98.3,74.07,17,98,4.7,CN,1687842773
409,gubkinskiy,64.434,76.5026,61.18,45,73,4.68,RU,1687842774
410,varzea paulista,-23.2114,-46.8283,61.45,86,0,2.21,BR,1687842774
411,san carlos,9.6612,-68.5827,73.2,95,96,3.42,VE,1687842774
412,luis correia,-2.8792,-41.6669,75.94,83,92,9.62,BR,1687842774
413,mulayjah,27.271,48.4242,102.74,8,26,15.88,SA,1687842775
414,el sauzal de rodriguez,31.9,-116.6833,61.41,78,16,5.17,MX,1687842775
415,guane,22.2025,-84.0875,77.83,85,38,3.51,CU,1687842775
416,flin flon,54.7682,-101.865,57.02,50,64,6.06,CA,1687842775
417,itaituba,-4.2761,-55.9836,76.98,69,99,1.36,BR,1687842775
418,olyokminsk,60.3736,120.4264,86.09,33,27,2.13,RU,1687842776
419,brak,27.5496,14.2714,79.7,35,0,13.22,LY,1687842776
420,tisul',55.7611,88.3122,69.42,46,75,9.44,RU,1687842776
421,jaru,-10.4389,-62.4664,71.2,70,4,1.83,BR,1687842486
422,bairnsdale,-37.8333,147.6167,60.06,56,94,7.29,AU,1687842195
423,monrovia,6.3005,-10.7969,76.82,85,100,12.26,LR,1687842777
424,tindouf,27.6711,-8.1474,86.45,10,0,4.61,DZ,1687842777
425,dingcheng,32.1272,115.0394,91.4,50,0,14.12,CN,1687842777
426,ilebo,-4.3167,20.5833,69.39,97,71,1.39,CD,1687842778
427,petrozavodsk,61.7849,34.3469,67.48,64,0,0.0,RU,1687842778
428,sturgeon bay,44.8342,-87.377,60.78,75,100,19.62,US,1687842773
429,sechura,-5.5569,-80.8222,73.74,74,88,12.77,PE,1687842778
430,dhidhdhoo,6.8833,73.1,79.97,79,100,13.29,MV,1687842189
431,mafeteng,-29.823,27.2374,42.15,47,0,5.99,LS,1687842779
432,mata-utu,-13.2816,-176.1745,82.15,73,46,11.9,WF,1687842779
433,luanda,-8.8368,13.2343,69.8,83,75,5.75,AO,1687842779
434,klyuchi,52.2667,79.1667,80.56,24,96,17.72,RU,1687842780
435,dawson creek,55.7666,-120.2362,66.58,68,0,2.3,CA,1687842780
436,yayva,59.3303,57.2641,64.18,53,57,5.21,RU,1687842780
437,ditrau,46.8167,25.5167,59.67,77,4,2.68,RO,1687842780
438,bol,13.4586,14.7147,79.52,81,100,19.75,TD,1687842781
439,chiredzi,-21.05,31.6667,48.74,54,0,1.92,ZW,1687842781
440,noria,32.5167,74.8,89.19,50,80,4.25,IN,1687842781
441,lazaro cardenas,17.9583,-102.2,82.4,83,98,8.1,MX,1687842781
442,jiquilisco,13.3167,-88.5833,78.12,91,100,3.47,SV,1687842781
443,sangola,17.4333,75.2,83.93,55,100,17.85,IN,1687842782
444,pekalongan,-6.8886,109.6753,85.01,60,52,4.63,ID,1687842782
445,san nicolas de los arroyos,-33.3358,-60.2252,55.06,43,100,6.78,AR,1687842782
446,enewetak,11.3474,162.3373,82.98,80,72,16.49,MH,1687842782
447,tobruk,32.0836,23.9764,73.56,85,2,10.96,LY,1687842783
448,pizarro,4.9533,-77.366,76.66,88,91,1.74,CO,1687842783
449,banfora,10.6333,-4.7667,72.46,96,97,6.11,BF,1687842783
450,de haan,51.272,3.0429,63.99,80,0,4.61,BE,1687842783
451,zhigalovo,54.8097,105.1578,53.76,80,100,9.33,RU,1687842783
452,magong,23.5654,119.5863,83.98,75,7,7.72,TW,1687842784
453,lethem,3.3803,-59.7968,75.76,90,100,3.36,GY,1687842784
454,antsiranana,-12.2787,49.2917,70.56,56,20,18.41,MG,1687842185
455,hammerfest,70.6634,23.6821,48.65,100,40,8.05,NO,1687842784
456,bejaia,36.7559,5.0843,73.09,58,0,1.61,DZ,1687842730
457,jordan,31.0,36.0,69.49,31,0,8.37,JO,1687842785
458,qaqortoq,60.7167,-46.0333,39.0,90,95,4.34,GL,1687842785
459,lae,-6.7221,146.9847,81.68,74,41,9.04,PG,1687842785
460,buka,40.8108,69.1986,90.45,13,0,5.61,UZ,1687842785
461,manacapuru,-3.2997,-60.6206,78.08,72,99,0.76,BR,1687842498
462,longavi,-35.9667,-71.6833,49.75,86,100,9.91,CL,1687842786
463,arawa,-6.2132,155.5367,84.34,59,94,3.69,PG,1687842786
464,severo-yeniseyskiy,60.3725,93.0408,60.57,40,100,8.95,RU,1687842786
465,dongyang,29.2678,120.2253,77.95,88,100,1.72,CN,1687842786
466,trevelin,-43.0858,-71.4639,35.08,97,100,1.45,AR,1687842787
467,narimanov,46.6927,47.8498,76.95,30,68,10.98,RU,1687842787
468,soc trang,9.6033,105.98,95.05,44,44,8.68,VN,1687842787
469,port augusta,-32.5,137.7667,51.39,95,100,7.9,AU,1687842788
470,ilhabela,-23.7781,-45.3581,68.5,66,0,3.71,BR,1687842788
471,ceeldheer,3.8488,47.1806,79.38,73,83,18.92,SO,1687842788
472,songea,-10.6833,35.65,54.97,66,0,0.27,TZ,1687842788
473,bohain-en-vermandois,49.9873,3.453,56.86,92,95,5.41,FR,1687842789
474,okha,53.5739,142.9478,48.38,93,100,13.33,RU,1687842789
475,zima,53.9202,102.0442,62.04,48,42,9.75,RU,1687842789
476,san pedro pochutla,15.7333,-96.4667,77.72,91,28,3.78,MX,1687842789
477,selfoss,63.9331,-20.9971,50.04,87,65,7.31,IS,1687842789
478,as sulayyil,20.4607,45.5779,91.65,10,0,6.38,SA,1687842790
479,askoy,60.4092,5.226,59.95,100,75,13.8,NO,1687842790
480,talavera de la reina,39.9635,-4.8308,73.67,45,0,5.1,ES,1687842790
481,ujae,8.9322,165.7642,83.07,81,97,17.92,MH,1687842790
482,poli,-3.3333,36.8,56.14,84,60,4.47,TZ,1687842791
483,igarka,67.4667,86.5833,60.06,47,4,8.3,RU,1687842791
484,potosi,-19.5836,-65.7531,38.43,21,7,2.51,BO,1687842791
485,laojunmiao,39.8333,97.7333,70.39,21,93,4.59,CN,1687842791
486,orchard homes,46.8633,-114.0484,59.59,87,0,1.99,US,1687842192
487,nishinoomote,30.7333,131.0,82.96,89,40,4.61,JP,1687842792
488,taltal,-25.4,-70.4833,61.9,74,5,2.21,CL,1687842792
489,talodi,10.6325,30.3797,74.59,80,86,4.07,SD,1687842792
490,mikuni,36.2171,136.1519,91.31,68,100,9.64,JP,1687842792
491,tondano,1.3038,124.9112,84.29,71,22,2.21,ID,1687842793
492,sao luiz gonzaga,-28.4083,-54.9608,61.07,83,0,8.28,BR,1687842793
493,thinadhoo,0.5333,72.9333,82.89,73,96,10.4,MV,1687842793
494,erenhot,43.6475,111.9767,92.62,9,93,23.38,CN,1687842794
495,isabela,6.7085,121.9711,87.62,64,50,2.66,PH,1687842495
496,manaure,11.7751,-72.4445,80.42,83,93,4.45,CO,1687842794
497,songkhla,6.8333,100.6667,91.45,58,98,6.87,TH,1687842794
498,callao,-12.0667,-77.15,70.09,73,100,11.5,PE,1687842794
499,planaltina,-15.4528,-47.6142,57.0,59,0,3.27,BR,1687842795
500,battle ground,45.7809,-122.5334,68.14,74,9,3.0,US,1687842606
501,stephenville,32.2207,-98.2023,88.59,51,0,4.61,US,1687842795
502,atbasar,51.8,68.3333,53.96,84,100,21.09,KZ,1687842795
503,metlili chaamba,32.2667,3.6333,77.94,34,0,3.44,DZ,1687842796
504,jatai,-17.8814,-51.7144,60.03,58,0,3.89,BR,1687842796
505,san juan,-31.5375,-68.5364,52.68,63,0,4.05,AR,1687842644
506,santa elena de uairen,4.6167,-61.1333,68.13,93,100,3.09,VE,1687842796
507,tir pul,34.5943,61.269,86.41,14,0,20.38,AF,1687842797
508,napili-honokowai,20.9708,-156.6705,76.64,84,12,18.41,US,1687842797
509,nagqu,31.5,92.0,50.85,63,100,10.8,CN,1687842797
510,rheinsberg,53.0997,12.8989,56.98,83,9,11.48,DE,1687842797
511,cabo san lucas,22.8909,-109.9124,82.62,77,2,8.01,MX,1687842600
512,oriximina,-1.7656,-55.8661,78.08,75,91,2.3,BR,1687842798
513,torbat-e jam,35.244,60.6225,85.03,15,0,9.06,IR,1687842798
514,el matama,16.7095,33.3565,91.36,14,4,8.5,SD,1687842798
515,kayar,14.9192,-17.1211,77.95,80,49,8.57,SN,1687842798
516,malanville,11.8685,3.3899,79.18,74,97,6.04,BJ,1687842799
517,mahaddayweyne,2.9726,45.5347,78.19,73,72,16.98,SO,1687842799
518,rameswaram,9.2833,79.3,83.61,74,100,13.02,IN,1687842799
519,newala kisimani,-10.95,39.2833,60.44,78,2,1.63,TZ,1687842799
520,ad dilam,23.9915,47.1627,97.21,9,0,8.88,SA,1687842799
521,robertsport,6.7533,-11.3686,77.85,84,100,13.78,LR,1687842800
522,zarah sharan,33.1467,68.7917,77.81,41,6,8.34,AF,1687842800
523,kruisfontein,-34.0033,24.7314,57.88,93,100,13.02,ZA,1687842800
524,libertad,8.9442,125.5019,86.97,69,90,5.7,PH,1687842800
525,selkirk,50.1436,-96.8845,68.07,87,94,5.61,CA,1687842684
526,snezhnogorsk,69.1933,33.2531,53.38,75,71,3.29,RU,1687842801
527,basni,27.1667,73.65,94.48,47,17,10.09,IN,1687842801
528,port shepstone,-30.7414,30.455,64.92,91,92,17.27,ZA,1687842801
529,zhangjiakou,40.81,114.8794,90.55,19,55,3.65,CN,1687842802
530,plettenberg bay,-34.0527,23.3716,56.71,87,94,10.8,ZA,1687842802
531,belmonte,-15.8631,-38.8828,71.46,86,75,6.96,BR,1687842802
532,verkhnevilyuysk,63.4453,120.3167,71.64,32,20,8.81,RU,1687842802
533,piti village,13.4626,144.6933,85.3,81,20,10.36,GU,1687842802
534,penzance,50.1186,-5.5371,61.48,84,93,13.51,GB,1687842803
535,gaspe,48.8334,-64.4819,52.02,100,100,6.91,CA,1687842678
536,el quetzal,14.7667,-91.8167,72.45,97,94,5.61,GT,1687842803
537,lingyuan,41.24,119.4011,99.95,13,100,8.01,CN,1687842803
538,baglung,28.2719,83.5898,81.19,74,48,5.5,NP,1687842804
539,tsengel,49.4783,100.8894,55.47,62,94,8.61,MN,1687842804
540,kenai,60.5544,-151.2583,52.09,79,100,3.44,US,1687842804
541,muleba,-1.8397,31.6544,71.4,59,69,6.55,TZ,1687842805
542,mili,6.0815,171.735,82.83,79,98,16.82,MH,1687842805
543,zaozersk,69.4005,32.4476,51.28,73,4,3.27,RU,1687842805
544,al hawatah,13.4167,34.6333,81.01,57,91,6.62,SD,1687842806
545,boguchany,58.3814,97.4531,50.36,96,100,9.04,RU,1687842806
546,castillos,-34.1667,-53.8333,56.14,92,100,6.02,UY,1687842806
547,lompoc,34.6391,-120.4579,57.78,82,100,20.0,US,1687842806
548,narra,9.3167,118.4,84.15,78,77,7.99,PH,1687842807
549,sinan,34.8262,126.1086,80.71,98,98,13.0,KR,1687842807
550,santa maria do suacui,-18.1903,-42.4142,60.85,95,41,1.5,BR,1687842807
551,neiafu,-18.65,-173.9833,77.68,73,20,0.0,TO,1687842807
552,crane,31.3974,-102.3501,92.7,18,4,25.77,US,1687842808
553,valday,57.9747,33.2525,63.41,62,92,5.01,RU,1687842808
554,altamira,-3.2033,-52.2064,72.03,75,80,1.3,BR,1687842808
555,monteagudo,-19.8167,-63.9833,57.45,75,0,3.24,BO,1687842808
556,guasave,25.5667,-108.45,82.0,80,22,1.99,MX,1687842809
557,nova vicosa,-17.8919,-39.3719,69.96,81,42,2.44,BR,1687842809
558,berbera,10.4396,45.0143,91.72,42,93,17.94,SO,1687842809
559,seabra,-12.4186,-41.7703,59.25,98,90,4.05,BR,1687842809
560,burela de cabo,43.65,-7.4,66.16,92,96,12.06,ES,1687842810
561,ebaye,8.7748,167.7392,86.02,74,0,16.11,MH,1687842810
562,khandyga,62.6667,135.6,90.37,29,48,5.08,RU,1687842810
563,sur,22.5667,59.5289,90.95,60,52,8.03,OM,1687842810
564,santa lucia,27.9117,-15.5407,65.52,83,75,2.3,ES,1687842551
565,bealanana,-14.55,48.7333,56.82,80,80,4.12,MG,1687842811
566,berdigestyakh,62.0989,126.6992,80.8,48,51,4.59,RU,1687842811
567,shitanjing,39.2342,106.3439,84.24,31,100,16.53,CN,1687842811
568,tol'yatti,53.5303,49.3461,61.52,61,8,4.18,RU,1687842811
569,al kharj,24.155,47.3346,97.38,9,1,9.82,SA,1687842812
570,atbara,17.7022,33.9864,91.0,11,32,14.72,SD,1687842812
571,al hufuf,25.3646,49.5653,100.74,8,0,14.97,SA,1687842810
572,karaton,-6.3424,106.1045,88.68,51,38,1.05,ID,1687842812
573,fort morgan,40.2503,-103.8,76.26,83,0,19.71,US,1687842813
574,dukhan,25.4297,50.7858,90.84,43,16,4.5,QA,1687842813
575,mahina,-17.5065,-149.489,80.37,69,75,3.44,PF,1687842813
576,bosobolo,4.1833,19.9,70.27,99,100,2.66,CD,1687842813
577,hobyo,5.3505,48.5268,80.15,69,95,21.7,SO,1687842813
578,lupane,-18.9315,27.807,43.34,45,0,4.5,ZW,1687842814
579,uray,60.1247,64.7758,65.21,39,25,2.91,RU,1687842814
580,watsa,3.0372,29.5355,64.27,98,62,1.77,CD,1687842814
581,thunder bay,48.4001,-89.3168,53.35,94,66,4.07,CA,1687842653
